[{"name":"Mission Creek Park","location":{"type":"Point","coordinates":[-122.3939652552,37.7728880475]},"place":"basketball court"},{"name":"Berry Basketball Courts","location":{"type":"Point","coordinates":[-122.3979310972,37.7719111262]},"place":"basketball court"},{"name":"Equinox Sports Club San Francisco","location":{"type":"Point","coordinates":[-122.4045675374,37.7866487972]},"place":"basketball court"},{"name":"YMCA","location":{"type":"Point","coordinates":[-122.3920834064,37.7926513221]},"place":"basketball court"},{"name":"Chase Center","location":{"type":"Point","coordinates":[-122.387463,37.767864]},"place":"basketball court"},{"name":"Victoria Manalo Draves Park","location":{"type":"Point","coordinates":[-122.4062288205,37.7773130704]},"place":"basketball court"},{"name":"Basketball Court at Avalon II","location":{"type":"Point","coordinates":[-122.3943967445,37.7758569595]},"place":"basketball court"},{"name":"Pacific Rim Professional Basketball Association","location":{"type":"Point","coordinates":[-122.3933868408,37.7910308838]},"place":"basketball court"},{"name":"Soma Rec Center","location":{"type":"Point","coordinates":[-122.406352049,37.7790122745]},"place":"basketball court"},{"name":"Mission Bay Courts","location":{"type":"Point","coordinates":[-122.397700002,37.7718620465]},"place":"basketball court"},{"name":"Victoria Park Courts","location":{"type":"Point","coordinates":[-122.407244,37.778385]},"place":"basketball court"},{"name":"Victoria Manalo Draves Basketball Court","location":{"type":"Point","coordinates":[-122.406676,37.777412]},"place":"basketball court"},{"name":"Mission Creek Park Tennis Court","location":{"type":"Point","coordinates":[-122.3990567656,37.7711806877]},"place":"basketball court"},{"name":"United Club","location":{"type":"Point","coordinates":[-122.387302,37.767808]},"place":"basketball court"},{"name":"Basketball Court","location":{"type":"Point","coordinates":[-122.4140775204,37.7811369114]},"place":"basketball court"},{"name":"Vbmatch Leagues Potrero Hill","location":{"type":"Point","coordinates":[-122.40035946,37.76193977]},"place":"basketball court"},{"name":"Joe DiMaggio Basketball Courts","location":{"type":"Point","coordinates":[-122.412109375,37.8024406433]},"place":"basketball court"},{"name":"Helen Wills Basketball Courts","location":{"type":"Point","coordinates":[-122.4204709045,37.7959863205]},"place":"basketball court"},{"name":"Hayward Playground Basketball Courts","location":{"type":"Point","coordinates":[-122.4262921302,37.7808224488]},"place":"basketball court"},{"name":"Alice Marble Basketball Court","location":{"type":"Point","coordinates":[-122.4202466011,37.8014766916]},"place":"basketball court"},{"name":"NBA Nation","location":{"type":"Point","coordinates":[-122.4129435814,37.7595465368]},"place":"basketball court"},{"name":"Jose Coronado Playground","location":{"type":"Point","coordinates":[-122.4150342513,37.7574604427]},"place":"basketball court"},{"name":"WerkOut Dolores","location":{"type":"Point","coordinates":[-122.4268363532,37.7608475083]},"place":"basketball court"},{"name":"Dolores Park Basketball Courts","location":{"type":"Point","coordinates":[-122.4277836084,37.7610417495]},"place":"basketball court"}]