[{"name":"San Francisco Giants Home Clubhouse","location":{"type":"Point","coordinates":[-122.39117296,37.7782568445]},"place":"club"},{"name":"Millennium Tower Club Level","location":{"type":"Point","coordinates":[-122.3960379386,37.7908815651]},"place":"club"},{"name":"Gold Club","location":{"type":"Point","coordinates":[-122.3996934,37.7859444]},"place":"club"},{"name":"Crunch - Yerba Buena","location":{"type":"Point","coordinates":[-122.3987623751,37.7833691345]},"place":"club"},{"name":"The Grove","location":{"type":"Point","coordinates":[-122.40196,37.786521]},"place":"club"},{"name":"The Wing San Francisco","location":{"type":"Point","coordinates":[-122.4007040668,37.7912003855]},"place":"club"},{"name":"SPiN Social Club","location":{"type":"Point","coordinates":[-122.3992112,37.7842349]},"place":"club"},{"name":"Indiegogo HQ","location":{"type":"Point","coordinates":[-122.4077780674,37.7815753691]},"place":"club"},{"name":"Bay Club SF Tennis","location":{"type":"Point","coordinates":[-122.397948048,37.7765711679]},"place":"club"},{"name":"Equinox Sports Club San Francisco","location":{"type":"Point","coordinates":[-122.4045675374,37.7866487972]},"place":"club"},{"name":"Club X","location":{"type":"Point","coordinates":[-122.3977053415,37.7820129499]},"place":"club"},{"name":"Pura Club","location":{"type":"Point","coordinates":[-122.4057742784,37.7782403132]},"place":"club"},{"name":"Monarch","location":{"type":"Point","coordinates":[-122.4085554289,37.7810024485]},"place":"club"},{"name":"The Pink Elephant","location":{"type":"Point","coordinates":[-122.4004555912,37.7868131461]},"place":"club"},{"name":"Temple Nightclub","location":{"type":"Point","coordinates":[-122.3972270176,37.7878983547]},"place":"club"},{"name":"House of Shields","location":{"type":"Point","coordinates":[-122.401337,37.788248]},"place":"club"},{"name":"South Park Commons","location":{"type":"Point","coordinates":[-122.3944623181,37.7815946128]},"place":"club"},{"name":"InterContinental San Francisco","location":{"type":"Point","coordinates":[-122.4047337,37.781973]},"place":"club"},{"name":"Gabby Cafe","location":{"type":"Point","coordinates":[-122.3904151345,37.7880842787]},"place":"club"},{"name":"1015 Folsom","location":{"type":"Point","coordinates":[-122.4057736432,37.778204099]},"place":"club"},{"name":"City Nights","location":{"type":"Point","coordinates":[-122.3975696952,37.7820910906]},"place":"club"},{"name":"The Crib","location":{"type":"Point","coordinates":[-122.3975720092,37.7820482602]},"place":"club"},{"name":"OMG!","location":{"type":"Point","coordinates":[-122.4091679766,37.780625354]},"place":"club"},{"name":"Novela","location":{"type":"Point","coordinates":[-122.4012461774,37.7869268465]},"place":"club"},{"name":"Local Edition","location":{"type":"Point","coordinates":[-122.403254,37.787598]},"place":"club"},{"name":"W San Francisco","location":{"type":"Point","coordinates":[-122.4002069,37.7854161]},"place":"club"},{"name":"San Francisco Marriott Marquis","location":{"type":"Point","coordinates":[-122.4044068,37.7853366]},"place":"club"},{"name":"Equinox Pine Street","location":{"type":"Point","coordinates":[-122.4012888529,37.7920356323]},"place":"club"},{"name":"111 Minna Gallery","location":{"type":"Point","coordinates":[-122.3992741221,37.787488294]},"place":"club"},{"name":"Hyatt Regency San Francisco","location":{"type":"Point","coordinates":[-122.3960563025,37.7941505606]},"place":"club"},{"name":"Glas Kat","location":{"type":"Point","coordinates":[-122.3977543945,37.7792140808]},"place":"club"},{"name":"LUCID Entertainment","location":{"type":"Point","coordinates":[-122.3938965797,37.77795699]},"place":"club"},{"name":"Twenty Five Lusk","location":{"type":"Point","coordinates":[-122.3943259871,37.7783595352]},"place":"club"},{"name":"Nespresso Boutique","location":{"type":"Point","coordinates":[-122.405495681,37.7837014052]},"place":"club"},{"name":"Four Seasons Hotel San Francisco","location":{"type":"Point","coordinates":[-122.4041629,37.786097]},"place":"club"},{"name":"Harlot","location":{"type":"Point","coordinates":[-122.398456408,37.7888819346]},"place":"club"},{"name":"The Grand Nightclub","location":{"type":"Point","coordinates":[-122.3976923505,37.7791253179]},"place":"club"},{"name":"alibi","location":{"type":"Point","coordinates":[-122.4003295898,37.7863616943]},"place":"club"},{"name":"The Endup","location":{"type":"Point","coordinates":[-122.4039659524,37.7773929214]},"place":"club"},{"name":"Love + Propaganda","location":{"type":"Point","coordinates":[-122.4068918712,37.7888384152]},"place":"club"},{"name":"Mars Bar & Restaurant","location":{"type":"Point","coordinates":[-122.4031212939,37.7732453162]},"place":"club"},{"name":"The Cavalier","location":{"type":"Point","coordinates":[-122.4068839606,37.7832519471]},"place":"club"},{"name":"Stealth Startup HQ","location":{"type":"Point","coordinates":[-122.4020028368,37.7814524059]},"place":"club"},{"name":"Crunch Fitness - New Montgomery","location":{"type":"Point","coordinates":[-122.401047349,37.7880707856]},"place":"club"},{"name":"SoMa Square Apartments","location":{"type":"Point","coordinates":[-122.3976018,37.7830936]},"place":"club"},{"name":"Hawthorn","location":{"type":"Point","coordinates":[-122.4041665512,37.7878459198]},"place":"club"},{"name":"The Park Central San Francisco","location":{"type":"Point","coordinates":[-122.4030965729,37.7865872359]},"place":"club"},{"name":"Mezzanine","location":{"type":"Point","coordinates":[-122.4080233734,37.7825344033]},"place":"club"},{"name":"Tempest","location":{"type":"Point","coordinates":[-122.406442,37.781064]},"place":"club"},{"name":"Jelly's","location":{"type":"Point","coordinates":[-122.3873977661,37.7745780945]},"place":"club"},{"name":"Kate O'Brien's","location":{"type":"Point","coordinates":[-122.3977042248,37.7871876966]},"place":"club"},{"name":"Royal Exchange","location":{"type":"Point","coordinates":[-122.3992091,37.7941431]},"place":"club"},{"name":"REAL BAD","location":{"type":"Point","coordinates":[-122.4057235718,37.7780799866]},"place":"club"},{"name":"The Beacon","location":{"type":"Point","coordinates":[-122.3935835516,37.7778730547]},"place":"club"},{"name":"Mezzanine - GeForce GTX Meet-Up","location":{"type":"Point","coordinates":[-122.4081726074,37.7825012207]},"place":"club"},{"name":"Breather","location":{"type":"Point","coordinates":[-122.4082311253,37.7843323947]},"place":"club"},{"name":"Millennium Tower","location":{"type":"Point","coordinates":[-122.396374115,37.7902705167]},"place":"club"},{"name":"Synergy's COSMO at Sens","location":{"type":"Point","coordinates":[-122.395790775,37.7950889279]},"place":"club"},{"name":"RELEASE","location":{"type":"Point","coordinates":[-122.409317,37.781765]},"place":"club"},{"name":"24 Hour Fitness","location":{"type":"Point","coordinates":[-122.3979021034,37.7943225523]},"place":"club"},{"name":"City Club of San Francisco","location":{"type":"Point","coordinates":[-122.4013146308,37.7920586352]},"place":"club"},{"name":"520 Jessie","location":{"type":"Point","coordinates":[-122.409779,37.781208]},"place":"club"},{"name":"Bazille","location":{"type":"Point","coordinates":[-122.407334,37.784113]},"place":"club"},{"name":"GameboiSF","location":{"type":"Point","coordinates":[-122.3981323242,37.7792892456]},"place":"club"},{"name":"Lending Club San Francisco HQs","location":{"type":"Point","coordinates":[-122.3996083716,37.7892787905]},"place":"club"},{"name":"595 Market Street","location":{"type":"Point","coordinates":[-122.400703722,37.7892800921]},"place":"club"},{"name":"Bar 333","location":{"type":"Point","coordinates":[-122.4002361053,37.7946672726]},"place":"club"},{"name":"Lucky Strike","location":{"type":"Point","coordinates":[-122.392233,37.778011]},"place":"club"},{"name":"Camille's Sidewalk Cafe","location":{"type":"Point","coordinates":[-122.3936233521,37.7933235168]},"place":"club"},{"name":"Stock Exchange Tower","location":{"type":"Point","coordinates":[-122.4010348192,37.7920484635]},"place":"club"},{"name":"WeRunSF","location":{"type":"Point","coordinates":[-122.395164,37.794874]},"place":"club"},{"name":"Schroeder's","location":{"type":"Point","coordinates":[-122.3986977,37.7939747]},"place":"club"},{"name":"The Factory","location":{"type":"Point","coordinates":[-122.4003323095,37.7810569616]},"place":"club"}]