[{"name":"Basquiat's Bottle","location":{"type":"Point","coordinates":[-73.9526317052,40.6805268371]},"place":"club"},{"name":"The Buzz Nightclub","location":{"type":"Point","coordinates":[-73.9586344843,40.6635504873]},"place":"club"},{"name":"Friends and Lovers","location":{"type":"Point","coordinates":[-73.9587124028,40.6786295877]},"place":"club"},{"name":"KAI studio","location":{"type":"Point","coordinates":[-73.9566954589,40.677934847]},"place":"club"},{"name":"Pacific BK","location":{"type":"Point","coordinates":[-73.957894,40.679214]},"place":"club"},{"name":"Albany Manor","location":{"type":"Point","coordinates":[-73.939446,40.660322]},"place":"club"},{"name":"Brown Sugar Club","location":{"type":"Point","coordinates":[-73.9378833227,40.6821974215]},"place":"club"},{"name":"Club Gravity","location":{"type":"Point","coordinates":[-73.954467,40.663964]},"place":"club"},{"name":"The Palace","location":{"type":"Point","coordinates":[-73.9501837007,40.6726693598]},"place":"club"},{"name":"Afrika House","location":{"type":"Point","coordinates":[-73.955429,40.64846]},"place":"club"},{"name":"Crazy Legs Skate Club","location":{"type":"Point","coordinates":[-73.9506619013,40.6905147401]},"place":"club"},{"name":"Club V.I.P","location":{"type":"Point","coordinates":[-73.9217799626,40.6643886856]},"place":"club"},{"name":"Mark Birnbaum Emm Group","location":{"type":"Point","coordinates":[-73.9432239532,40.6609128067]},"place":"club"},{"name":"Weather Up","location":{"type":"Point","coordinates":[-73.9680142186,40.6799739938]},"place":"club"},{"name":"Essence Bar & Restaurant","location":{"type":"Point","coordinates":[-73.9357968313,40.6776397152]},"place":"club"},{"name":"Trendz","location":{"type":"Point","coordinates":[-73.9151492514,40.6476814985]},"place":"club"},{"name":"Market Hotel","location":{"type":"Point","coordinates":[-73.934584558,40.6969187324]},"place":"club"},{"name":"The Bandshell \/ Celebrate Brooklyn!","location":{"type":"Point","coordinates":[-73.976649642,40.6634316775]},"place":"club"},{"name":"The Social Butterfly","location":{"type":"Point","coordinates":[-73.9651135269,40.681326586]},"place":"club"},{"name":"Secrets Lounge","location":{"type":"Point","coordinates":[-73.9507481542,40.6739139749]},"place":"club"},{"name":"Eastern Athletic Club","location":{"type":"Point","coordinates":[-73.9681988979,40.6729606624]},"place":"club"},{"name":"Fancy Nancy Brooklyn","location":{"type":"Point","coordinates":[-73.9551811896,40.6894556745]},"place":"club"},{"name":"Olivia","location":{"type":"Point","coordinates":[-73.9557671,40.6795414]},"place":"club"},{"name":"Brooklyn Croquet & Hunt Club","location":{"type":"Point","coordinates":[-73.9707236396,40.6648855432]},"place":"club"},{"name":"The Black Swan","location":{"type":"Point","coordinates":[-73.9551626673,40.6891892182]},"place":"club"},{"name":"Knickerbocker Field Club","location":{"type":"Point","coordinates":[-73.963643,40.64774]},"place":"club"},{"name":"Club Republic","location":{"type":"Point","coordinates":[-73.933927,40.696252]},"place":"club"},{"name":"24 Hour Fitness","location":{"type":"Point","coordinates":[-73.9608056864,40.6444345384]},"place":"club"}]